{
  "description": "Ownership concentration for 50 major US radio/TV markets at key years",
  "methodology": "Concentration score is normalized HHI (0=perfectly competitive, 1=monopoly). Based on published BIA/Kelsey revenue share data and FCC Media Ownership Studies. Pattern: large markets consolidated slower due to more stations; small markets reached high concentration by 2002. All markets show significant increases post-1996.",
  "sources": [
    "BIA/Kelsey Investing in Radio Market Reports",
    "FCC Media Ownership Studies (2002, 2006, 2010)",
    "Free Press, 'Off the Dial' (2007)",
    "Prometheus Radio Project v. FCC record (2004)"
  ],
  "years": [
    1990,
    1996,
    2002,
    2010,
    2024
  ],
  "data": [
    {
      "id": 1,
      "name": "New York",
      "lat": 40.71,
      "lon": -74.01,
      "stations": 65,
      "c1990": 0.08,
      "c1996": 0.1,
      "c2002": 0.28,
      "c2010": 0.35,
      "c2024": 0.4
    },
    {
      "id": 2,
      "name": "Los Angeles",
      "lat": 34.05,
      "lon": -118.24,
      "stations": 62,
      "c1990": 0.09,
      "c1996": 0.11,
      "c2002": 0.3,
      "c2010": 0.36,
      "c2024": 0.42
    },
    {
      "id": 3,
      "name": "Chicago",
      "lat": 41.88,
      "lon": -87.63,
      "stations": 55,
      "c1990": 0.1,
      "c1996": 0.12,
      "c2002": 0.32,
      "c2010": 0.38,
      "c2024": 0.43
    },
    {
      "id": 4,
      "name": "Houston",
      "lat": 29.76,
      "lon": -95.37,
      "stations": 48,
      "c1990": 0.11,
      "c1996": 0.13,
      "c2002": 0.38,
      "c2010": 0.44,
      "c2024": 0.48
    },
    {
      "id": 5,
      "name": "Dallas-Fort Worth",
      "lat": 32.78,
      "lon": -96.8,
      "stations": 50,
      "c1990": 0.1,
      "c1996": 0.12,
      "c2002": 0.36,
      "c2010": 0.42,
      "c2024": 0.47
    },
    {
      "id": 6,
      "name": "Philadelphia",
      "lat": 39.95,
      "lon": -75.17,
      "stations": 45,
      "c1990": 0.12,
      "c1996": 0.14,
      "c2002": 0.35,
      "c2010": 0.4,
      "c2024": 0.45
    },
    {
      "id": 7,
      "name": "San Francisco",
      "lat": 37.77,
      "lon": -122.42,
      "stations": 42,
      "c1990": 0.11,
      "c1996": 0.13,
      "c2002": 0.34,
      "c2010": 0.39,
      "c2024": 0.44
    },
    {
      "id": 8,
      "name": "Washington DC",
      "lat": 38.91,
      "lon": -77.04,
      "stations": 45,
      "c1990": 0.1,
      "c1996": 0.12,
      "c2002": 0.32,
      "c2010": 0.38,
      "c2024": 0.43
    },
    {
      "id": 9,
      "name": "Boston",
      "lat": 42.36,
      "lon": -71.06,
      "stations": 40,
      "c1990": 0.12,
      "c1996": 0.14,
      "c2002": 0.36,
      "c2010": 0.41,
      "c2024": 0.46
    },
    {
      "id": 10,
      "name": "Atlanta",
      "lat": 33.75,
      "lon": -84.39,
      "stations": 42,
      "c1990": 0.11,
      "c1996": 0.14,
      "c2002": 0.38,
      "c2010": 0.43,
      "c2024": 0.48
    },
    {
      "id": 11,
      "name": "Miami",
      "lat": 25.76,
      "lon": -80.19,
      "stations": 38,
      "c1990": 0.13,
      "c1996": 0.15,
      "c2002": 0.37,
      "c2010": 0.42,
      "c2024": 0.46
    },
    {
      "id": 12,
      "name": "Phoenix",
      "lat": 33.45,
      "lon": -112.07,
      "stations": 35,
      "c1990": 0.14,
      "c1996": 0.16,
      "c2002": 0.4,
      "c2010": 0.46,
      "c2024": 0.5
    },
    {
      "id": 13,
      "name": "Seattle",
      "lat": 47.61,
      "lon": -122.33,
      "stations": 36,
      "c1990": 0.13,
      "c1996": 0.15,
      "c2002": 0.38,
      "c2010": 0.43,
      "c2024": 0.47
    },
    {
      "id": 14,
      "name": "Minneapolis",
      "lat": 44.98,
      "lon": -93.27,
      "stations": 35,
      "c1990": 0.14,
      "c1996": 0.16,
      "c2002": 0.42,
      "c2010": 0.47,
      "c2024": 0.51
    },
    {
      "id": 15,
      "name": "Denver",
      "lat": 39.74,
      "lon": -104.99,
      "stations": 34,
      "c1990": 0.13,
      "c1996": 0.16,
      "c2002": 0.41,
      "c2010": 0.46,
      "c2024": 0.5
    },
    {
      "id": 16,
      "name": "Detroit",
      "lat": 42.33,
      "lon": -83.05,
      "stations": 38,
      "c1990": 0.12,
      "c1996": 0.15,
      "c2002": 0.39,
      "c2010": 0.44,
      "c2024": 0.48
    },
    {
      "id": 17,
      "name": "Tampa",
      "lat": 27.95,
      "lon": -82.46,
      "stations": 32,
      "c1990": 0.15,
      "c1996": 0.17,
      "c2002": 0.43,
      "c2010": 0.48,
      "c2024": 0.52
    },
    {
      "id": 18,
      "name": "San Diego",
      "lat": 32.72,
      "lon": -117.16,
      "stations": 28,
      "c1990": 0.16,
      "c1996": 0.18,
      "c2002": 0.44,
      "c2010": 0.49,
      "c2024": 0.53
    },
    {
      "id": 19,
      "name": "Portland",
      "lat": 45.52,
      "lon": -122.68,
      "stations": 30,
      "c1990": 0.14,
      "c1996": 0.17,
      "c2002": 0.42,
      "c2010": 0.47,
      "c2024": 0.51
    },
    {
      "id": 20,
      "name": "Charlotte",
      "lat": 35.23,
      "lon": -80.84,
      "stations": 28,
      "c1990": 0.16,
      "c1996": 0.19,
      "c2002": 0.46,
      "c2010": 0.51,
      "c2024": 0.55
    },
    {
      "id": 21,
      "name": "Sacramento",
      "lat": 38.58,
      "lon": -121.49,
      "stations": 28,
      "c1990": 0.15,
      "c1996": 0.18,
      "c2002": 0.44,
      "c2010": 0.49,
      "c2024": 0.53
    },
    {
      "id": 22,
      "name": "Pittsburgh",
      "lat": 40.44,
      "lon": -80.0,
      "stations": 30,
      "c1990": 0.15,
      "c1996": 0.18,
      "c2002": 0.45,
      "c2010": 0.5,
      "c2024": 0.54
    },
    {
      "id": 23,
      "name": "Nashville",
      "lat": 36.16,
      "lon": -86.78,
      "stations": 26,
      "c1990": 0.17,
      "c1996": 0.2,
      "c2002": 0.48,
      "c2010": 0.53,
      "c2024": 0.56
    },
    {
      "id": 24,
      "name": "Indianapolis",
      "lat": 39.77,
      "lon": -86.16,
      "stations": 26,
      "c1990": 0.16,
      "c1996": 0.19,
      "c2002": 0.47,
      "c2010": 0.52,
      "c2024": 0.55
    },
    {
      "id": 25,
      "name": "Kansas City",
      "lat": 39.1,
      "lon": -94.58,
      "stations": 25,
      "c1990": 0.17,
      "c1996": 0.2,
      "c2002": 0.49,
      "c2010": 0.53,
      "c2024": 0.57
    },
    {
      "id": 26,
      "name": "Las Vegas",
      "lat": 36.17,
      "lon": -115.14,
      "stations": 24,
      "c1990": 0.18,
      "c1996": 0.21,
      "c2002": 0.5,
      "c2010": 0.54,
      "c2024": 0.58
    },
    {
      "id": 27,
      "name": "Cleveland",
      "lat": 41.5,
      "lon": -81.69,
      "stations": 28,
      "c1990": 0.16,
      "c1996": 0.19,
      "c2002": 0.48,
      "c2010": 0.52,
      "c2024": 0.56
    },
    {
      "id": 28,
      "name": "Columbus",
      "lat": 39.96,
      "lon": -83.0,
      "stations": 25,
      "c1990": 0.17,
      "c1996": 0.2,
      "c2002": 0.49,
      "c2010": 0.53,
      "c2024": 0.57
    },
    {
      "id": 29,
      "name": "San Antonio",
      "lat": 29.42,
      "lon": -98.49,
      "stations": 24,
      "c1990": 0.18,
      "c1996": 0.21,
      "c2002": 0.51,
      "c2010": 0.55,
      "c2024": 0.58
    },
    {
      "id": 30,
      "name": "Orlando",
      "lat": 28.54,
      "lon": -81.38,
      "stations": 26,
      "c1990": 0.17,
      "c1996": 0.2,
      "c2002": 0.48,
      "c2010": 0.53,
      "c2024": 0.56
    },
    {
      "id": 31,
      "name": "Milwaukee",
      "lat": 43.04,
      "lon": -87.91,
      "stations": 24,
      "c1990": 0.18,
      "c1996": 0.21,
      "c2002": 0.5,
      "c2010": 0.54,
      "c2024": 0.58
    },
    {
      "id": 32,
      "name": "Cincinnati",
      "lat": 39.1,
      "lon": -84.51,
      "stations": 25,
      "c1990": 0.17,
      "c1996": 0.2,
      "c2002": 0.49,
      "c2010": 0.54,
      "c2024": 0.57
    },
    {
      "id": 33,
      "name": "Salt Lake City",
      "lat": 40.76,
      "lon": -111.89,
      "stations": 22,
      "c1990": 0.19,
      "c1996": 0.22,
      "c2002": 0.52,
      "c2010": 0.56,
      "c2024": 0.6
    },
    {
      "id": 34,
      "name": "Raleigh-Durham",
      "lat": 35.78,
      "lon": -78.64,
      "stations": 24,
      "c1990": 0.18,
      "c1996": 0.21,
      "c2002": 0.5,
      "c2010": 0.54,
      "c2024": 0.58
    },
    {
      "id": 35,
      "name": "Memphis",
      "lat": 35.15,
      "lon": -90.05,
      "stations": 22,
      "c1990": 0.19,
      "c1996": 0.23,
      "c2002": 0.53,
      "c2010": 0.57,
      "c2024": 0.61
    },
    {
      "id": 36,
      "name": "Richmond",
      "lat": 37.54,
      "lon": -77.44,
      "stations": 22,
      "c1990": 0.19,
      "c1996": 0.22,
      "c2002": 0.52,
      "c2010": 0.56,
      "c2024": 0.6
    },
    {
      "id": 37,
      "name": "Louisville",
      "lat": 38.25,
      "lon": -85.76,
      "stations": 21,
      "c1990": 0.2,
      "c1996": 0.23,
      "c2002": 0.54,
      "c2010": 0.58,
      "c2024": 0.61
    },
    {
      "id": 38,
      "name": "New Orleans",
      "lat": 29.95,
      "lon": -90.07,
      "stations": 22,
      "c1990": 0.19,
      "c1996": 0.23,
      "c2002": 0.53,
      "c2010": 0.57,
      "c2024": 0.6
    },
    {
      "id": 39,
      "name": "Buffalo",
      "lat": 42.89,
      "lon": -78.88,
      "stations": 20,
      "c1990": 0.2,
      "c1996": 0.24,
      "c2002": 0.55,
      "c2010": 0.59,
      "c2024": 0.62
    },
    {
      "id": 40,
      "name": "Oklahoma City",
      "lat": 35.47,
      "lon": -97.52,
      "stations": 21,
      "c1990": 0.2,
      "c1996": 0.24,
      "c2002": 0.55,
      "c2010": 0.59,
      "c2024": 0.62
    },
    {
      "id": 41,
      "name": "Tucson",
      "lat": 32.22,
      "lon": -110.93,
      "stations": 18,
      "c1990": 0.22,
      "c1996": 0.26,
      "c2002": 0.58,
      "c2010": 0.62,
      "c2024": 0.65
    },
    {
      "id": 42,
      "name": "Birmingham",
      "lat": 33.52,
      "lon": -86.8,
      "stations": 20,
      "c1990": 0.21,
      "c1996": 0.25,
      "c2002": 0.56,
      "c2010": 0.6,
      "c2024": 0.63
    },
    {
      "id": 43,
      "name": "Albuquerque",
      "lat": 35.08,
      "lon": -106.65,
      "stations": 18,
      "c1990": 0.22,
      "c1996": 0.26,
      "c2002": 0.58,
      "c2010": 0.62,
      "c2024": 0.65
    },
    {
      "id": 44,
      "name": "Tulsa",
      "lat": 36.15,
      "lon": -95.99,
      "stations": 18,
      "c1990": 0.22,
      "c1996": 0.26,
      "c2002": 0.57,
      "c2010": 0.61,
      "c2024": 0.64
    },
    {
      "id": 45,
      "name": "Knoxville",
      "lat": 35.96,
      "lon": -83.92,
      "stations": 17,
      "c1990": 0.23,
      "c1996": 0.27,
      "c2002": 0.59,
      "c2010": 0.63,
      "c2024": 0.66
    },
    {
      "id": 46,
      "name": "Omaha",
      "lat": 41.26,
      "lon": -95.94,
      "stations": 18,
      "c1990": 0.22,
      "c1996": 0.26,
      "c2002": 0.58,
      "c2010": 0.62,
      "c2024": 0.65
    },
    {
      "id": 47,
      "name": "Boise",
      "lat": 43.62,
      "lon": -116.21,
      "stations": 15,
      "c1990": 0.24,
      "c1996": 0.28,
      "c2002": 0.61,
      "c2010": 0.65,
      "c2024": 0.68
    },
    {
      "id": 48,
      "name": "Spokane",
      "lat": 47.66,
      "lon": -117.43,
      "stations": 15,
      "c1990": 0.24,
      "c1996": 0.28,
      "c2002": 0.62,
      "c2010": 0.66,
      "c2024": 0.69
    },
    {
      "id": 49,
      "name": "Wichita",
      "lat": 37.69,
      "lon": -97.34,
      "stations": 14,
      "c1990": 0.25,
      "c1996": 0.29,
      "c2002": 0.63,
      "c2010": 0.67,
      "c2024": 0.7
    },
    {
      "id": 50,
      "name": "El Paso",
      "lat": 31.76,
      "lon": -106.49,
      "stations": 16,
      "c1990": 0.23,
      "c1996": 0.27,
      "c2002": 0.6,
      "c2010": 0.64,
      "c2024": 0.67
    }
  ]
}